{
	"data": [
		{
			"name": "Con Market",
			"address": "318 Ong Ich Khiem Street",
			"openingHours": "6:00 AM",
			"closingHours": "7:00 PM",
			"averageCost": 30,
			"rating": 4.9,
			"tags": ["market", "shopping", "local"],
			"thumbnail": "https://danangleisure.com/wp-content/uploads/2023/03/Con-Market.jpg",
			"favorite": true,
			"pin": "Recommend"
		},
		{
			"name": "Da Nang Cathedral",
			"address": "156 Tran Phu Street",
			"openingHours": "5:00 AM",
			"closingHours": "5:00 PM",
			"averageCost": 10,
			"rating": 4.3,
			"tags": ["cathedral", "religious", "architecture"],
			"thumbnail": "https://static.vinwonders.com/2022/12/Danang-Cathedral-thumb.jpg",
			"favorite": false,
			"pin": null
		},
		{
			"name": "Han Market",
			"address": "119 Tran Phu Street",
			"openingHours": "6:00 AM",
			"closingHours": "7:00 PM",
			"averageCost": 30,
			"rating": 4.2,
			"tags": ["market", "shopping", "local"],
			"thumbnail": "https://danangleisure.com/wp-content/uploads/2023/02/Han-Market-Da-Nang.jpg",
			"favorite": true,
			"pin": "Hot"
		},
		{
			"name": "Phap Lam Pagoda",
			"address": "574 Ong Ich Khiem Street",
			"openingHours": "6:00 AM",
			"closingHours": "6:00 PM",
			"averageCost": 10,
			"rating": 4.0,
			"tags": ["pagoda", "religious", "architecture"],
			"thumbnail": "https://www.holidify.com/images/cmsuploads/compressed/attr_2594_20190814180101.jpg",
			"favorite": false,
			"pin": null
		},
		{
			"name": "Da Nang Museum of Fine Arts",
			"address": "78 Le Duan Street",
			"openingHours": "7:00 AM",
			"closingHours": "5:00 PM",
			"averageCost": 30,
			"rating": 4.3,
			"tags": ["museum", "fine arts", "history"],
			"thumbnail": "https://static.vinwonders.com/2023/02/da-nang-museum-thumb.jpg",
			"favorite": true,
			"pin": "New"
		},
		{
			"name": "Nam Son Pagoda",
			"address": "Lac Long Quan Street",
			"openingHours": "6:00 AM",
			"closingHours": "6:00 PM",
			"averageCost": 10,
			"rating": 4.9,
			"tags": ["pagoda", "religious", "architecture"],
			"thumbnail": "https://heyotour.com/wp-content/uploads/2022/06/image1-37.jpg",
			"favorite": true,
			"pin": "Recommend"
		}
	]
}
