{
	"data": [
		{
			"name": "Marble Mountains",
			"address": "Hoa Hai Ward, Ngu Hanh Son District",
			"openingHours": "8:00 AM",
			"closingHours": "5:30 PM",
			"averageCost": 50,
			"rating": 4.5,
			"tags": ["mountains", "caves", "scenic"],
			"thumbnail": "https://www.marmomac.com/wp-content/uploads/2022/07/Marble-Mountains_copertina.jpg",
			"favorite": true,
			"pin": "New"
		},
		{
			"name": "Dragon Bridge",
			"address": "Nguyen Van Linh Street",
			"openingHours": "24/7",
			"closingHours": "None",
			"averageCost": 0,
			"rating": 4.6,
			"tags": ["bridge", "landmark", "nightlife"],
			"thumbnail": "https://danangleisure.com/wp-content/uploads/2022/05/IMG_5318-1536x1028.jpeg",
			"favorite": false,
			"pin": "Hot"
		},
		{
			"name": "My Khe Beach",
			"address": "Phuoc My Ward, Son Tra District",
			"openingHours": "24/7",
			"closingHours": "None",
			"averageCost": 0,
			"rating": 4.4,
			"tags": ["beach", "sunbathing", "water sports"],
			"thumbnail": "https://statics.vinpearl.com/my-khe-beach-2_1692016028.jpg",
			"favorite": true,
			"pin": "Recommend"
		},
		{
			"name": "Ba Na Hills",
			"address": "An Son Hamlet, Hoa Ninh Commune, Hoa Vang District",
			"openingHours": "7:00 AM",
			"closingHours": "9:00 PM",
			"averageCost": 70,
			"rating": 4.7,
			"tags": ["hills", "cable car", "amusement park"],
			"thumbnail": "https://vietnam.travel/sites/default/files/inline-images/shutterstock_1346056832.jpg",
			"favorite": false,
			"pin": null
		},
		{
			"name": "Han River Bridge",
			"address": "Bach Dang Street",
			"openingHours": "24/7",
			"closingHours": "None",
			"averageCost": 40,
			"rating": 3.9,
			"tags": ["bridge", "landmark", "nightlife"],
			"thumbnail": "https://mercuryhotel.vn/storage/uploads/images/du-thuyen-song-han-mercury-hotel-danang.jpg",
			"favorite": false,
			"pin": null
		},
		{
			"name": "Son Tra Peninsula",
			"address": "Son Tra District",
			"openingHours": "24/7",
			"closingHours": "None",
			"averageCost": 30,
			"rating": 4.9,
			"tags": ["peninsula", "scenic", "wildlife"],
			"thumbnail": "https://vietnamdiscovery.com/wp-content/uploads/2020/10/son-tra-overview.jpg",
			"favorite": true,
			"pin": "New"
		},
		{
			"name": "Linh Ung Pagoda",
			"address": "Hoang Sa Road, Son Tra District",
			"openingHours": "6:00 AM",
			"closingHours": "6:00 PM",
			"averageCost": 20,
			"rating": 5.0,
			"tags": ["pagoda", "scenic", "religious"],
			"thumbnail": "https://static.vinwonders.com/2022/09/Son-tra-peninsula-banner.jpg",
			"favorite": true,
			"pin": "Hot"
		},
		{
			"name": "Museum of Cham Sculpture",
			"address": "2 2 Thang 9 Street",
			"openingHours": "7:00 AM",
			"closingHours": "5:30 PM",
			"averageCost": 40,
			"rating": 4.2,
			"tags": ["museum", "sculpture", "history"],
			"thumbnail": "https://upload.wikimedia.org/wikipedia/commons/3/3c/Interior_view_-_Museum_of_Cham_Sculpture_-_Danang%2C_Vietnam_-_DSC01931.JPG",
			"favorite": false,
			"pin": null
		},
		{
			"name": "Asia Park",
			"address": "1 Phan Dang Luu Street",
			"openingHours": "3:00 PM",
			"closingHours": "10:00 PM",
			"averageCost": 22,
			"rating": 4.7,
			"tags": ["amusement park", "rides", "entertainment"],
			"thumbnail": "https://duan-sungroup.com/wp-content/uploads/2022/11/cong-vien-chau-a-asia-park-duoc-cai-tao-vao-nam-2020.jpg",
			"favorite": false,
			"pin": null
		}
	]
}
